Stations,Longitude,Latitude,Janvier,Fevrier,Mars,Avril,Mai,Juin,Juillet,Aout,Septembre,Octobre,Novembre,Decembre
ARIBINDA,-0.87,14.23,0,0,0,1.4,11.3,82.1,187.2,169.4,168.5,22.3,0,0
BAGASSI,-3.3,11.75,0,10.1,15.6,64.6,108.9,107.5,229.7,262.1,191.7,4.6,0,0
BAGUERA,-5.42,10.53,0,0,0,117.7,107.1,151.9,439.1,286.7,248.9,218.7,-9999,0
BANFORA AGRI,-4.77,10.62,0,0,63,28.1,142.1,92.6,245.3,245.8,196.4,166.5,13.4,21.3
BANI,-0.17,13.72,0,0,0,0,8.9,78,199.2,199.2,65.8,6.5,0,0
BARABOULE,-1.85,14.22,0,0,0,0,3.5,34.5,131.2,264.5,147.2,-19998,0,0
BARSALOGHO,-1.07,13.42,0,0,0,10.3,14.4,145.6,154.4,310.5,82.6,24.8,0,0.7
BATIE,-2.92,9.88,0,14.3,21.7,45.8,178.7,45,91.7,164.2,-29997,165.7,3,0
BEREBA,-3.68,11.62,0,0,0,36.4,43.4,22.6,319.7,202.8,146.9,17.7,0,0
BEREGADOUGOU,-4.73,10.75,0,0,25.2,69.8,153.5,167.8,217.1,178.2,108.9,95.2,56.4,12.4
BETARE,-1.37,11.43,0,12.7,0,82.6,120.6,82.1,280.7,280.3,234.6,56.9,0,0
BILANGA,-0.02,12.55,0,0,17.5,7.2,14.2,137.6,264.2,268,188.1,70.8,1.5,0
BOMBOROKUY,-3.98,13.05,0,0,0,36.5,41.8,122.1,83.2,311,74.3,-19998,0,0
BONDOUKUY,-3.77,11.85,0,0,2.7,74,56.5,97.9,201,173.7,195.1,75.3,19.8,0
BOTOU,2.05,12.67,0,8.7,0,19.8,53.6,84.3,178.6,176.6,140.7,0,0,0
BOULBI,-1.53,12.23,0,0,0,45.2,94.3,20.5,155.7,357.9,63,0,0,0
BOULSA,-0.57,12.65,0,0,1.6,44.4,31.1,68.1,189.5,265,219.6,19.3,0,0
BOURA,-2.5,11.05,0,0,2.2,52.5,119.6,103.1,231,268.8,185.2,67.2,0,3.2
BOUROUM,-0.65,13.6,0,0,0,25.9,10,105.2,118.4,248.1,11.5,0,0,0
BOURZANGA,-1.55,13.68,0,0.4,0,13.8,52.6,75.6,127.1,260.7,42.9,15.5,0,0
BOUSSE,-1.88,12.67,0,0,0,19.3,41.6,89.2,238.6,253.1,151.8,10.3,0,0
DAKIRI,-0.23,13.28,0,0,0,12.4,14.7,93.7,178.3,315,109.3,8,0,0
DANO,-3.07,11.15,0,0,6.9,91.7,156.1,28.1,282.6,225.4,176.7,93.8,26.3,3.8
DI-SOUROU,-3.42,13.17,0,0,0,12.1,32.7,155.5,118.2,354.9,157.2,62.5,8.1,0
DIAPAGA,1.78,12.07,0,18,0,13.5,62.9,121.1,131.1,161.6,172.4,90.7,0,0
DIDYR,-2.62,12.57,0,0,0,5.7,46.8,68.2,189.4,242.9,140.7,13,4.5,0
DIEBOUGOU,-3.25,10.97,0,171.2,3,66,117.8,104.2,354.8,299.9,183.1,119,18.8,9
DISSIN,-2.93,10.93,0,9.3,25,94.5,95.9,85,283.6,231.3,241.5,81.3,9.7,2
DJIBO,-1.62,14.1,0,0,0,3.5,26.5,103.8,133.5,196.4,133.4,1.6,0,0
FARA,-2.77,11.52,0,0,13.2,31.4,65.9,49.9,171.7,352.9,164.2,13.1,0,9.7
GARANGO,-0.57,11.8,0,0.6,0,25.7,72.1,41.4,174.1,240.6,179,37.6,0,0
GAYERI,0.48,12.65,0,0,0,0,45.5,180,202.5,411.5,197,10,0,0
GORGADJI,-0.52,14.03,0,0,0,11,0,51.1,237.8,387.2,103.8,0,0,0
GOROM-GOROM,-0.23,14.45,0,0,0,6,53,55.5,99,323,93.5,6.5,0,0
GOURCY,-2.35,13.2,0,0,0,25,31,112.5,144.5,355.5,192,35.5,0,0
GUILONGOU,-1.3,12.62,0,0,0,4.6,62.3,97.1,217.6,296.3,132.8,22.4,0,0
HOUNDE,-3.52,11.48,0,19.3,6.7,49,37.5,68.5,274,195.4,82.6,9.9,22,0
IMANSGHO,-2.33,12.43,0,0,0,20.4,29.8,76.2,184.9,284.2,144.3,-29997,-9999,0
KAMBOINCE,-1.55,12.47,0,1.8,0,20.1,46.9,45.4,240.1,253.5,122.7,69.4,0,0
KAMPTI,-3.47,10.13,0,11.9,39.1,38.6,114.2,102.6,78.2,68.7,109.5,62,28.9,2.9
KANTCHARI,1.52,12.47,0,0,0,9.3,89.6,24.8,116.9,152.3,181.4,17.9,0,0
KASSOUM,-3.3,13.08,0,0,0,54.1,12.4,152.2,142.3,257.1,201.8,29.7,9.9,0
KAYA,-1.08,13.1,0,0,0,28,20.7,79.5,265.4,304,112.5,58.7,0,2
KIEMBARA,-2.72,13.25,0,0,0,3.1,57.5,128.6,271.3,268.7,130.1,25.2,0,0
KINDI,-2.03,12.43,0,0,0,0,29.5,66.9,176.1,281.5,157.3,10.5,3.2,0
KOKOLOGHO,-1.88,12.18,0,6.1,0,66.4,35.7,32.4,234.9,308.9,214.9,3,12.8,0
KOMIN-YANGA,0.13,11.73,0,0,25.2,6.5,178.2,105.5,108.4,259,190.9,46.6,13.8,0
KORSIMORO,-1.07,12.82,0,0,0,0,14.5,21,118.5,238.5,107.3,22.5,0,0
KOSSOUGOUDOU,-0.23,12.93,0,0.2,6.1,21.4,7.1,90.4,192.8,299,283.5,26.7,0,0
KOUDOUGOU,-2.37,12.27,0,1.9,0,22.4,45.2,29.7,194.1,230.4,118.3,23.9,20.7,0
KOUKA,-4.33,11.9,0,0,0,67.8,139,91.4,243.3,210.5,136.9,42.7,4.7,0
KOUMBIA,-3.7,11.23,0,2.3,1,38,140.2,26.8,424,287.5,149.1,118.4,-19998,0
KOUPELA,-0.35,12.18,0,0,0,34.7,63.9,41.3,180.8,296.5,193.2,37.9,0,0
KOUROUMA,-4.8,11.62,0,0,0,113.4,57.8,107.9,316.5,219.6,132.5,45.6,3.5,0
LEO,-2.1,11.1,0,0,4,49.2,114.6,120.9,163.6,235.1,109,8.8,0,0
LERI,-3.38,12.77,0,0,0,8.6,50.5,118.1,131.8,247.1,141.5,25.4,6,0
LOUMANA,-5.35,10.58,0,0,0,62,130.6,153.2,387.6,307.2,274.5,121.4,24.8,0
MAHADAGA,1.75,11.7,0,46.3,0,34.1,107.2,97,208.8,121,148.8,37.8,0,0
MANE,-1.33,12.98,0,0,0,23.3,27.2,91.2,172.2,307.4,126.4,48.5,0,7.5
MANGA,-1.07,11.67,0,0,0,22.1,91.7,73.6,200.2,279.1,211,25.2,0,0
MANGODARA,-4.35,9.9,0,0,18.5,-29997,-29997,119,134,209,234,145.5,21,0
MARKOYE,0.07,14.63,0,0,0,4.2,7.4,7.2,159.8,230.5,65.4,0,0,0
MATIAKOUALY,1.03,12.37,0,0,0,8.7,44.3,77.2,139.8,164.9,134.1,32.2,0,0
MOGTEDO,-0.83,12.28,0,0,0,3.2,61,16.5,278.7,231.6,185.6,11,0,0
N'DOROLA,-4.82,11.77,0,0,0,67.1,103.8,95.9,278.9,198,248.8,22,27.1,0
NAMOUNOU,1.7,11.87,0,34,0,9.6,63.4,108.1,172.8,-29997,181.4,92.1,0,0
NASSO,-4.43,11.2,0,0,6.2,90.6,122.6,36.5,-29997,252.3,96.2,0,0,0
NIANGOLOKO,-4.92,10.27,0,0,30.2,72.7,118.5,141.1,198,219.6,244.8,67.9,23,0
NIAOGHO,-0.77,11.77,0,0,0,31.5,33.5,76,188.5,167,248,33,0,0
NOUNA,-3.87,12.73,0,0,0,68,57.1,171.4,159,412.1,158,29,0,0
ORODARA,-4.92,10.98,0,28.6,45.1,95,161.9,110.5,357.4,412.5,231.8,87.6,66.2,0
OUARGAYE,0.02,11.53,0,0,49.3,18.4,121.7,95.3,161.4,288.1,178.9,103.2,0,0
OUARKOYE,-3.67,12.08,0,0,0,23.3,112.9,123.2,306.6,212.8,213.4,25.5,0,0
OUO,-3.83,10.4,0,19.6,8.8,100.2,110.5,103.2,174.7,128.8,243.1,-29997,0,0
PABRE,-1.57,12.52,0,0,0,37.2,52,70.2,113,244.1,133.6,12.6,0,0
PAMA,0.7,11.25,0,0,0,52.5,243,13.3,137.2,134.2,189.1,59.6,0,0
PIELA,-0.13,12.7,0,8.5,6.5,0,40.7,45.9,137.8,229.5,105.9,23.2,0,0
POBE,-1.77,13.9,0,0,0,4,1,71,114.4,171.2,68.6,31.9,0,0
REO AGRI,-2.37,12.32,0,4,0,0,91.6,34.4,330.6,383.7,143,56.7,0,0
SAFANE,-3.22,12.13,0,18,0,29.6,16.8,178.3,235.5,205.5,198.3,0,0,0
SAMOROGOUAN,-4.93,11.4,0,0,0,22.6,-29997,-29997,-29997,273.5,78.5,10,40.1,14.5
SAPONE,-1.6,12.05,0,0,0,58.3,74.8,12.9,217.8,226.8,192.9,4.2,0,0
SARIA,-2.15,12.27,0,3.5,0,11.6,22.2,22.8,214.4,346.3,166.2,43.2,0.8,0
SEBBA,0.52,13.43,1,1.4,0,17.8,33.6,85.9,181.2,232.7,147.4,20.6,0,0
SEGUENEGA,-1.97,13.43,0,0,0,18.7,9.2,74.3,235.3,360.8,106.4,6.2,0,0
SIDERADOUGOU,-4.25,10.68,0,0,49,72.5,126.1,95.9,214.1,151.8,114.2,106.9,0,0
SINDOU,-5.17,10.67,0,0,21.3,84.2,97.4,117,222.9,264.6,212.7,87.9,9.8,0.3
SOLENZO,-4.08,12.18,0,0,2.2,8.4,77.6,58.6,371,292.6,86.9,17.3,16.4,0
SOUROU-GASSAN,-3.22,12.82,0,0,0,11,45,89.7,221.4,268,130.6,17.8,0,0
TANSILA,-4.38,12.42,0,0,25,47.6,80.3,100.5,198.3,362.1,136.7,53.9,6.8,0
TEMA,-1.77,13.05,0,5,0,16,44,146.9,165.1,274.7,112.4,1.5,0,5.6
TENKODOGO,-0.38,11.77,0,0,0,42,101.5,77.6,184.6,159.9,197.9,54.8,11.2,0
TIEBELE,-0.97,11.1,0,0,0,80.9,83.8,55.4,234.4,194.6,217.9,42.3,1.2,0
TIOGO,-2.68,12.18,0,15.5,0,71.9,54.8,72.6,343.4,248.3,138.2,31.8,0,0
TITAO,-2.07,13.77,0,0,0,0,18,81.4,57.1,250.3,122.2,2,0,0
TOECE,-1.25,11.62,0,2,0,66.1,73.8,113.5,340.4,218.2,282.8,20.9,0,12.7
TOENI,-3.18,13.43,0,0,0,12,10.1,147.1,164.3,236.8,144.5,26.6,0,0
TOMA,-2.9,12.77,0,0,0,1.2,34.4,70.6,210.4,302.1,139.2,17.4,3.6,0
TOUGAN,-3.07,13.08,0.4,0,0,22.5,21.5,172.1,270.2,332,-29997,-29997,-9999,0
TOUGOURI,-0.5,13.32,0,0,0,0,15,68.5,134,257,149,67,149,0
VALLEE DU KOU,-4.38,11.37,0,0,12.3,15,76.5,127.7,395.6,257.1,253,72.9,0,0
WONA,-3.43,11.97,0,0,0,38.4,23.8,86.4,199.8,184.1,207.6,0,0,0
YAKO,-2.27,12.97,0,0,0,21.1,48.1,76.1,131.5,269.4,143.5,18.2,0,0
YAMBA,0.33,12.3,0,0,4,6,48.9,131.8,102,194.5,186.9,41,0,0
ZABRE,-0.6,11.17,0,0,0,88.3,-29997,63.7,178.7,185.6,259.2,57.2,0,0
ZORGHO,-0.62,12.25,0,0,0,7.3,57,34.1,234.9,140.7,161.1,29.6,0,0
BITOU,-0.306111,11.258056,0,0,5.5,12.8,104.6,104.6,314.6,305,204.9,76.4,0,0
BOBO-DIOULASS,-4.30,11.17,0,0,2.1,105,129.8,48.4,413.9,153.9,142.1,74.8,9,0
BOGANDE,-0.13,12.98,0,0.3,0,18.6,44.4,64.4,208.7,263.6,199,14.3,0,0
BOROMO,-2.92,11.73,0,12.1,7.3,28.1,194.3,48.6,277.2,307.1,144.1,14,4.4,1.1
BOUSSOUMA,0,0,0,0,0,20.1,46,91.4,262,314.7,94.4,34.4,8.2,0
DEDOUGOU,-3.48,12.47,0,0,0,18.1,87.4,136,209.5,417.1,81.9,10.2,8,0
DORI,-0.03,14.03,0,0.4,0,8,6.6,71.9,159.5,273.9,95.6,10,0,0
FADA N'GOURMA,0.35,12.07,0,38.5,0.9,6.2,34.7,75.1,132.5,327.9,171.6,36.9,0,0
FARAKO-BA (AG,-4.33,11.10,0,0,0,48.6,102,143,378.5,153.1,151.8,97.3,4.2,0
GAO BF,-2.18,11.65,0,41.3,24.8,34.4,99.6,40.5,166.2,441,-29997,-29997,0.7,0
GAOUA,-3.18,10.33,0,5.7,15.6,62.1,121,200.3,178.4,139,198.9,66.8,56,0.1
GON-BOUSSOUGO,-0.77,11.40,0,0,0,34.4,25.3,49.9,212.3,261.8,246,42.5,0,0
NOBERE,-1.204444,11.558056,0,0,0,65.8,79.9,64.5,236.3,308.5,223,57.2,8.7,0
OUAGADOUGOU A,-1.52,12.35,0,0,0,13.7,73.8,67.9,382.3,240.6,234.8,4.8,0,0.3
OUAHIGOUYA,-2.43,13.58,0,0,0,14.4,13.8,185.8,137.6,360,242.2,14.9,0,0
OUANGOLODOUGO,-4.80,10.08,0,13,39.5,70.2,107,84.4,189.4,219.2,153.5,76.6,0,0
PO,-1.15,11.17,0,0,39.5,70.2,67.7,73.6,202.6,274.1,262,47.8,0.5,0
SANGHA,0.159444,11.180556,0,4.5,39.5,30.6,81.6,115.6,295.1,281.4,144.5,119.5,10.3,0
SOUBAKANIEDOU,-5.02,10.48,0,0,39.5,102.6,163.7,66.9,178.5,251.2,148.2,105.9,25.3,0
TANGHIN DASSO,-1.72,12.27,0,0,39.5,67.2,61.7,46.9,241.1,221,199.1,0.5,0,2.1
TIOU-KOUDOUGO,-2.20,11.95,0,12.2,39.5,42.2,45,18.2,279.8,281.2,143.3,12.6,0,0
TIOU-OUAHIGOU,-2.67,13.82,0,0,39.5,5.4,25.9,142.4,155,261.3,191.7,35.8,0,0
,,,,,,,,,,,,,,
,,,,,,,,,,,,,,
