Stations,Longitude,Latitude,Janvier,Fevrier,Mars,Avril,Mai,Juin,Juillet,Aout,Septembre,Octobre,Novembre,Decembre
ABALA,3.43,14.95,0,0,0,0,23.2,22.2,59.8,74.3,41.5,18,0,0
ABALA.BRIGADE,3.43,14.95,0,0,0,0,6.5,50.4,0.3,73.2,48.3,11,0,0
ABALAK,6.25,15.47,0,0,0,7.5,9,15.8,105.3,56,24.2,25.1,0,0
ADERBISSINAT,7.85,15.62,0,0,0,0,0,31.1,9,79.5,28.5,3.8,0,0
ADJE KORIA,6.78,14.33,0,0,0,0,74.2,56.3,52.8,170.8,17.8,63.4,0,0
AGADEZ,7.98,16.97,0,0,0,0,9.3,0.2,20.6,69.7,56.4,4,0,0
AGUIE,7.77,13.50,0,0,0,0,70.7,33.7,83.5,93.6,72.8,9.4,0,0
AINOMA,2.3,12.87,0,0,0,0,0,81,149,314,-29997,0,0,0
AKOKAN,1.58,13.92,0,0,0,0,0,10,0,8.7,8,0,0,0
ARLIT,7.33,18.50,0,0,0,0,0,0,0,41,10,1,0,0
ARZERORI(NOMA,5.92,14.15,0,0,0,0,0,-9930,120,48.2,0,0,0,0
AYOROU,0.85,14.75,0,0,0,1.2,4,4.5,221,72.5,87,57,0,0
AYOROU.GEND.,0.85,14.95,0,0,0,0,0,80,144,66.5,77,56,0,0
B.NGAOURE(AG),2.883,13.067,0,0,0,-9999,-29997,-19998,132.9,201.2,133.6,-29997,0,0
BADEGUICHIRI,5.37,14.52,0,0,0,0,0,146.8,18,-9959,66,40,0,0
BAGAROUA,3.30,14.12,0,0,0,0,36,28,21.1,88.7,69.2,19.2,0,0
BAKIN-BIRGI,8.78,14.27,0,0,0,0,-29997,73.9,98.6,74.2,-19992.4,-29997,0,0
BALLEYARA,2.97,13.77,0,0,0,0,7.3,87.3,55.3,186.8,32.4,10.5,0,0
BALLEYARA . A,2.97,13.77,0,0,0,0,6,46,78.8,167.7,-9948.5,-29997,0,0
BANDE HAOUSSA,8.88,13.18,0,0,0,0,60,20.9,-9888.5,104.5,-29997,-29997,0,0
BANGUI,6.10,13.72,0,0,0,0,30,-29997,67.6,90.6,-29997,-29997,0,0
BANIBANGOU,2.50,15.05,0,0,0,0,28,72.5,43.5,96.5,45.5,12,0,0
BANKILARE,0.72,14.57,0,0,0,0,0,78.6,78.7,91.4,45.7,20.5,0,0
BELBEDJI,8.07,14.65,0,0,0,0,0,35,26.5,67.3,9,8.5,0,0
BENGOU,3.57,11.98,0,0,0,9.6,19.1,239.4,218,223.4,142.1,34.4,0,0
BERMO,6.684167,14.674167,0,0,0,0,9.5,7.1,27.8,110.3,15,41.9,0,0
BEYLANDE,2.87,12.75,0,0,0,0,7.6,175.4,133.7,348.4,117.7,28.9,0,0
BILMA,12.92,18.68,0,0,0,0,0.5,0,4.6,9.4,0,0,0,0
BIRNI NGAOUR,2.90,13.08,0,0,0,0,5,53,124,193.2,121.5,73,0,0
BIRNI NKONNI,5.28,13.80,0,0,0,0,12,61.2,79.9,117.7,59.4,27.8,0,0
BONKOUKOU,3.07,14.00,0,0,0,0,11.4,111.5,104.5,108.5,86.5,38,0,0
BOSSO,13.32,13.72,0,0,0,0,2.1,0,29.9,184.6,34.2,0,0,0
BOUTTI,11.33,13.65,0,0,0,0,10,23.2,74,32.4,7.1,0,0,0
BOUZA,6.05,14.42,0,0,0,0,1.9,57.6,123,101.1,66.3,16.7,0,0
CHADAKORI,6.98,13.73,0,0,0,0,12.9,40.7,63,94.2,64.2,9,0,0
CHETIMARI,12.50,13.30,0,0,0,0,4.8,13.6,97.7,122.3,57.7,0,0,0
DAIKAINA,1.48,14.18,0,0,0,0,13,72.3,47.1,123.2,30.8,31,0,0
DAKORO,6.75,14.52,0,0,0,0,10,38.5,82,130.5,34.5,86,0,0
DAMAGARAM-TAKAYA,9.47,14.17,0,0,0,0,7.5,24.1,37.2,98.7,31.7,0,0,0
DAMANA,3.067,13.900,0,0,0,6,8.5,67,51.6,187.6,68.2,0,0,0
DAN BARTO,8.33,13.17,0,0,0,0,0,79,135.9,156.6,24.6,0,0,0
DAN ISSA,7.25,13.17,0,0,0,5,19.6,38.7,174.1,148.9,108.4,8.5,0,0
DAN MEIRO,7.32,13.88,0,0,0,12.1,4.4,32.5,68.3,-29997,-29997,-9999,0,0
DAN TCHIAO,9.08,12.87,0,0,0,0,-19976,-19955,81,-29997,0,0,0,0
DANGONA,5.02,14.27,0,0,0,0,16.3,155.2,9.8,148.5,120,18.5,0,0
DANTCHANDOU,2.75,14.40,0,0,0,0,0,-19984,47,-19954,-9959,0,0,0
DARGOL,1.82,13.92,0,0,0,0,8.1,71,34.8,128,80.2,33.5,0,0
DIFFA,12.62,13.42,0,0,0,4.2,2.9,1.3,103.5,132.6,28.7,5.8,0,0
DIOUNDIOU,3.53,12.55,0,0,0,0,28.7,98.8,147,189.5,124.7,39,0,0
DJAJIRI,11.58,13.57,0,0,0,0,4.5,128.5,33,23,-29997,-29997,0,0
DJIRATAWA,7.13,13.40,0,0,0,0,22.5,14.9,123.7,132,68.8,15,0,0
DODORI,8.23,13.30,0,0,0,0,48.5,76.5,78.5,174.5,95,0,0,0
DOGONDOUTCHI,4.00,13.63,0,0,0,0,13.5,131.4,112,163.8,54.2,34.1,0,0
DOGONKIRIA,4.35,14.07,0,0,0,0,13.3,117.7,93.9,138,58.8,-19998,0,0
DOLBEL,0.28,14.68,0,0,0,0,0,98,203,-9775,-19982,-29997,0,0
DOSSO,3.18,13.02,0,0,0,0.5,12.4,73.9,107.9,215.9,141.7,33.3,0,0
DOUKOU-DOUKOU,6.32,13.85,0,0,0,0,75,16.2,103.7,-9876.3,-9961.8,-19979.8,0,0
DUNGASS,9.33,13.07,0,0,0,0,77.9,13.1,138,160.1,97.8,4.8,0,0
FALMEY,2.85,12.53,0,0,0,3,24,132.8,151,262.6,236,44.7,0,0
FALOUEL,3.58,13.52,0,0,0,0,19.7,59.7,127.6,170.2,54.4,25,0,0
FILINGUE,3.32,14.35,0,0,0,0,1.1,60.5,29,112.4,51.2,20,0,0
GABAOURI,6.12,15.03,0,0,0,0,72,59,184.1,177.7,16,0,0,0
GABI MAYAKI,7.05,13.23,0,0,0,7,17.5,38.5,125,210.5,97,60,0,0
GALMA.SEDENT.,5.8,14.08,0,0,0,0,18.8,156.9,116.2,155,25,0,0,0
GALMI,5.5,13.97,0,0,0,0,14.6,53.5,69.7,162.4,48.2,23.5,0,0
GARADOUME,5.8888,14.3679,0,0,0,0,56,57.5,105,102,31.5,0,0,0
GARAGOUMSA,8.382098198,13.6739042,0,0,0,-9999,-29997,-9957.5,80.3,97.3,31.1,0,0,0
GARHANGA,5.77,14.55,0,0,0,0,91.5,107.5,65.1,-9970,65,43.1,0,0
GAYA,3.45,11.88,0,0,0,0.3,25.7,179.4,193.6,265.3,149.4,31.7,0,0
GAYA.AGRI,3.45,11.88,0,0,0,0.6,25.7,176,229.4,270.4,158.4,33.1,0,0
GAZAOUA,7.92,13.85,0,0,0,0,45,30.5,137.5,102.7,34,10,0,0
GOTHEYE,1.58,13.82,0,0,0,0,23.5,129.1,103.2,174.8,89.6,18.5,0,0
GOUDOUMARIA,11.17,13.72,0,0,0,0,2.2,4.5,79.1,121.6,15.9,0,0,0
GOULA,7.23,14.65,0,0,0,0,7.5,15.7,29.5,104.5,30.3,34.1,0,0
GOURE,10.30,13.98,0,0,0,0,1.9,25.5,72.9,26.9,44.7,0,0,0
GOURE (PTT),10.30,13.98,0,0,0,2,11.6,28.8,73.2,39.6,43.2,0.3,0,0
GUECHEME,3.88,12.92,0,0,0,0,7,142,91.5,97,65.5,23,0,0
GUESKEROU,12.85,13.60,0,0,0,0,17,-9999,80.5,94.9,68.2,-9999,0,0
GUIDAM ROUMDJI,6.77,13.67,0,0,0,0,54.9,13.7,118.2,121.3,33.5,21.6,0,0
GUIDAN IDDER,5.32,14.02,0,0,0,0,5.3,76.9,88.7,141.8,70.9,-9999,0,0
GUIDAM ROUMDJI,6.77,13.67,0,0,0,0,-19961.5,-9985.8,60.4,60.9,24.3,19.8,0,0
GUIDIGUIR,9.83,13.67,0,0,0,0,13,38,46.8,54,0,0,0,0
GUIDIMOUNI,9.55,13.68,0,0,0,0,0,-9971.5,-9977.5,-9990,11.6,0,0,0
IFEROUANE,8.38,19.08,0,0,0,0,2,0.1,2,1.7,9.9,4.2,0,0
ILLELA,5.25,14.47,0,0,0,0,15,120.5,51.7,87.5,106.1,35,0,0
IN GALL,6.90,16.78,0,0,0,0,5,12,44.5,124.1,64,7,0,0
INTOUILA,6.62,14.70,0,0,0,0,0,34,92.4,-29997,-19998,0,0,0
KABELAWA,5.67,14.47,0,0,0,0,2,0,36,19,0,0,0,0
KALA-PATE (IRAT),2.93,13.23,0,0,0,0,0,61.9,198.9,176.2,74,0,0,0
KANTCHE,6.15,14.30,0,0,0,0,33.5,40.6,75.5,140.6,48.5,28.2,0,0
KAO,5.75,15.23,0,0,0,0,11,0,102.8,77.6,54.5,21.9,0,0
KAOURA-ABDOU,5.37,14.5,0,0,0,0,34.5,127,53,105,62,53,0,0
KAROUFANE,6.150,14.300,0,0,0,0,0,73,134,58,2,84,0,0
KEITA,5.77,14.77,0,0,0,0,25,37.9,49.2,159,65.6,32.9,0,0
KEITA.BRIG.,5.77,14.77,0,0,0,0,0,23,53.9,48.1,58.1,2.1,0,0
KILAKAM,11.73,13.55,0,0,0,0,20.9,11.9,143,64.2,11.6,-29997,0,0
KODJIMERI,11.10,13.42,0,0,0,0,0,27.7,132.3,45.6,5.6,1.2,0,0
KOLO,2.35,13.30,0,0,0,0,7.4,39.9,107.2,223.5,50.1,28.5,0,0
KONA,8.07,13.57,0,0,0,0,80.5,20,115.5,121,22,0,0,0
KORE MAIROUA,3.95,13.33,0,0,0,0,10.5,20.2,137.5,128.4,141,30.8,0,0
KORGOM,8.42,13.45,0,0,0,0,70,30,45.3,107.5,70.7,0,0,0
KOURE,2.57,13.30,0,0,0,0,0,57.5,160,248,-19989,-29997,0,0
KOURE,2.57,13.30,0,0,0,0,31,19.9,56.5,61.7,16.5,0,0,0
KOYGOLO,3.017,13.483,0,0,0,0,11,60,137,205,102,36.5,0,0
LOGA,3.23,13.60,0,0,0,0,19.3,94,120.6,138.8,80.2,21,0,0
MADAOUA,5.98,14.12,0,0,0,0,12.6,88.8,84.2,122.2,43.3,50.5,0,0
MADAROUNFA,7.15,13.32,0,0,0,4,3.8,53.5,128.8,131.7,88.7,23.2,0,0
MAGARIA,8.93,12.98,0,0,0,0,56.1,49.8,216.6,201.3,63.4,11,0,0
MAGARIA-MAKER,5.786381,14.02311,0,0,0,-9999,-29997,124.6,-9910,-9848.6,-19976,-29997,0,0
MAINE SOROA,11.98,13.23,0,0,0,0,26.1,3,129,104.7,35.1,12.8,0,0
MAKALONDI .AG,1.68,12.82,0,0,0,0,21.6,95.1,-9917.6,284.2,169.7,-19998,0,0
MALBAZA,5.50,13.97,0,0,0,0,1,83.7,73,102.2,45.3,26.6,0,0
MALLAOUA,9.60,13.02,0,0,0,0,42.9,15.4,146.5,62.3,94.9,0,0,0
MANGAIZE,2.03,14.80,0,0,0,0,2,10.2,40.9,118.3,-19974.5,-29997,0,0
MARADI AERO,7.08,13.47,0,0,0,1.6,28.5,37.6,128.8,141.2,108.1,45.6,0,0
MARAKA,7.07,13.08,0,0,0,7.5,28.6,73.2,102.1,16,48.4,0,0,0
MATAMAYE,8.47,13.42,0,0,0,0,93.2,51.5,113.9,146.9,37.1,1,0,0
MATANKARI,3.73,12.90,0,0,0,0,30.4,114.3,115.7,144.6,81.5,22.2,0,0
MAYAHI,7.70,13.98,0,0,0,3,5,36.8,107.2,105.7,37.5,0,0,0
MEHANA,1.13,14.40,0,0,0,0,14.8,69,68.7,70,15,32.7,0,0
MIRRIAH.GEND,9.15,13.72,0,0,0,0,15.9,35,77,163.6,28.1,0,0,0
MYRRIAH,9.15,13.72,0,0,0,0,22.5,45.1,84.2,158.4,28.6,0,0,0
NGOURTI,13.20,15.30,0,0,0,0,0,0,8,26.6,19.8,0,0,0
NGUIGMI,13.12,14.25,0,0,0,13,3.5,11.7,49.1,54.5,12.2,6.8,0,0
NIAMEY AERO,2.17,13.48,0,0,0,14.4,18.9,20.2,183.2,197.2,96.4,35.2,0,0
NIAMEY AGRHYMET,2.13,13.47,0,0,0,1,15.5,53.4,143.5,-29997,0,39.8,0,0
NIAMEY VILLE,2.13,13.50,0,0,0,0,18.2,49.7,145.1,221.3,72.8,47.2,0,0
OLLELEOUA,8.63,14.35,0,0,0,0,0.5,16,44.5,51.5,10.6,-29997,0,0
OUALLAM,2.08,14.32,0,0,0,0,13,32,45.5,107,16,56,0,0
OUNA,3.15,12.17,0,0,0,2,51.9,107.8,145.2,278.6,170.5,66,0,0
OURAFANE,8.13,14.02,0,0,0,0,0,-9971,72.3,-9957.1,24,-9999,0,0
OURNO,6.45,14.3,0,0,0,0,-19993,131,90,85.1,-9935.3,-19976.2,0,0
SABON BIRNI,3.58,11.90,0,0,0,4.6,54.3,216.1,284,236.9,196.7,19,0,0
SABON GUIDA,5.9,13.93,0,0,0,0,30.5,59,100.8,122.5,106,28.7,0,0
SABON MACHI,6.97,13.87,0,0,0,0,50,25,38,98,6.5,0,0,0
SAE SABOUA,7.35,13.57,0,0,0,0,28,34,122,-19955.5,15,0,0,0
SAMBERA,3.07,12.40,0,0,0,36.5,7,96.8,106,-19880,170.8,0,0,0
SANAM,3.92,14.67,0,0,0,0,0.7,70,35.5,93.5,-29997,-19998,0,0
SANSANE HAOUSSA,1.60,13.83,0,0,0,0,19.9,130.5,119.5,211.9,109.8,0,0,0
SAOUNI,8.45,13.35,0,0,0,0,63.5,65,79.8,154.9,75.5,0,0,0
SASSOUMBROUM,8.50,13.13,0,0,0,0,24,53,168,129,-29997,0,0,0
SAY,2.35,13.10,0,0,0,0,1.5,80.7,134.8,244.3,42.9,19.5,0,0
SAYAM .CM.I,12.50,13.63,0,0,0,0,0,2.5,83.3,-29997,-29997,-29997,0,0
SERKIN YAMMA,6.92,13.37,0,0,0,0,13.4,76.7,70.7,-19967,-19936.3,-9990.2,0,0
SIA,3.28,12.10,0,0,0,4.5,104,196.1,150.8,316,203.6,71.5,0,0
SIMIRI,2.13,14.13,0,0,0,0,11,66.9,39,56.6,51.5,40,0,0
SOKORBE,3.173611,13.508056,0,0,0,0,17.5,122.5,65,189.5,126.8,26.5,0,0
TABALAK,5.666667,15.1,0,0,0,0,19.2,121.9,-9966.8,-29997,-29997,-19998,-9999,0
TABELOT,8.93,17.42,0,0,0,0,0,0,9.5,10.5,0,2.5,0,0
TABOTAKI,5.18,13.5,0,0,0,0,7.5,60,151.5,68.5,-19983,-19909.5,0,0
TAHOUA,5.30,14.90,0,0,0,0,17.2,91,68.3,144.3,84.6,6.9,0,0
TAKIETA,8.52,13.67,0,0,0,0,8.9,58.2,75.8,113.5,69.7,1.5,0,0
TAKORKA(MADAO,6.15,13.87,0,0,0,0,97,87,63,96,70,0,0,0
TAMASKE,5.65,14.82,0,0,0,0,10.2,51.4,88.5,111.3,118.4,29.9,0,0
TAMOU,2.17,12.75,0,0,0,0,-19987.5,51.8,-9884,-19881,-9952,-19968,0,0
TANOUT,8.82,14.95,0,0,0,0,23.3,18.4,36.1,55.6,15.2,0,0,0
TASSARA,5.70,16.87,0,0,0,0,0,4.8,54.6,139.9,37.5,20,0,0
TCHADAOUA,7.45,13.55,0,0,0,0,40,31.1,136.6,111.1,-19998,-9990.5,0,0
TCHINTABARADEN,5.80,15.88,0,0,0,0,13,35,98.3,94.5,14,15.7,0,0
TEBARAM,4.45,14.82,0,0,0,0,29.4,46.4,58,-29997,-29997,-29997,0,0
TERA,0.82,14.03,0,0,0,1.5,40.1,64.4,100.7,159.8,57.4,122.8,0,0
TESKER,10.72,15.13,0,0,0,0,15,11.9,11,37.8,49,0,0,0
TESSA,3.40,12.77,0,0,0,0,14,145.2,181.2,184,-9917,2,0,0
TESSAOUA,7.98,13.75,0,0,0,16.2,14.8,53.7,70.2,126.2,40.1,9.3,0,0
TESSAOUA(GEND,7.98,13.75,0,0,0,0,3.4,47.1,56.5,107.8,34,0,0,0
TIBIRI (DOUTCHI),4.00,13.10,0,0,0,0,9.4,92.4,68.9,126.1,75,18.1,0,0
TIBIRI MARADI,7.03,13.58,0,0,0,0,-9939,-9985,-9965,-19990,-9967.4,-19998,0,0
TILEMSES,4.75,15.60,0,0,0,0,27.5,105.8,51,72.4,-19964.4,-29997,0,0
TILLABERY,1.45,14.20,0,0,0,0,8.6,72.8,46.6,85.5,23.7,19.9,0,0
TILLIA,4.78,16.13,0,0,0,0,28.5,29.7,34.2,115.2,10.4,23.5,0,0
TORODI (AGRI),1.80,13.12,0,0,0,0,24,78.5,167.8,216.2,52.5,39,0,0
TORODI BRIGAD,1.8,13.12,0,0,0,0,25,80,182.8,171.5,46,24,0,0
TOUKOUNOUS,3.28,14.50,0,0,0,0,3.5,70.7,48.6,163.7,76.5,20.8,0,0
TOUMOUR,13.13,13.67,0,0,0,0,0,0,33.2,34.4,56,0,0,0
TSERNAOUA,5.33,13.88,0,0,0,0,6.5,128.9,106.7,181,132.3,0,0,0
YAOURI,8.55,13.27,0,0,0,0,26,69.3,136,60,-9959,31,0,0
YELOU,3.57,12.25,0,0,0,6,96,218.5,151,249,121.6,-29997,0,0
ZINDER AERO,8.98,13.78,0,0,0,0,25.1,72.1,64,134.8,33.4,1.5,0,0
