Stations,Longitude,Latitude,Janvier,Fevrier,Mars,Avril,Mai,Juin,Juillet,Aout,Septembre,Octobre,Novembre,Decembre
IRIBA,22.25,15.12,0,0,0,0,0,14.2,95.5,46.6,3.7,0,0,0
MAO,15.32,14.12,0,0,0,0,0,-19998,-19998,-19998,-29997,-29997,-29997,-19998
BILTINE,20.92,14.52,0,0,0,0,2,0,105.5,65,5.5,0,0,0
AMZOER,21.37,14.22,0,-29997,-29997,-29997,-29997,-29997,-29997,-29997,-29997,-29997,-29997,-29997
NGOURI,15.38,13.63,0,0,0,0,20.5,64,132.6,95.5,16.5,0,0,0
ATI,18.32,13.22,0,0,0,0,3.6,3.7,137.6,-19922.9,-9999,0,0,0
DJEDAA,18.58,13.52,-29997,-29997,-29997,-29997,-29997,-29997,-29997,-29997,-29997,-29997,-29997,-29997
OUMHADJ,19.7,13.3,0,0,0,0,13.5,74.2,126.7,168.7,8,0,0,0
ABECHE,20.85,13.85,0,0,0,2.1,28.4,68.2,115.6,31.8,1.8,0,0,0
ADRE,22.2,13.47,0,0,0,0,30.7,24.5,285.3,165.6,13.7,0,0,0
NDJAMENA ,15.03,12.13,0,0,4.6,9.1,80.6,116.8,293.2,92.9,37.6,0,0,0
TOURBA,15.3,12.87,0,0,0,20,53,125,150.5,83,52.1,0,0,0
MASSAGUET,15.42,12.5,-29997,-29997,-19998,0,-19995,-29997,-29997,-29997,-29997,-29997,-29997,-29997
KOUNDOUL,15.15,11.98,0,0,0,30,30.2,155.4,179,-19911,-29997,-29997,-29997,-19998
BOKORO,17.05,12.38,0,3.5,0,1,21,24.4,172.7,174.7,8.1,1.5,0,0
DADOUAR,18.45,12.13,0,0,0,36.5,46.1,86,213.4,280.8,81.9,0,0,0
MONGO,18.68,12.18,0,0,0,11.1,9.7,89.5,267.6,234.8,42.1,-19984.8,-29997,-19998
BARO,18.97,12.2,0,0.4,0,34,37.4,68.3,150,176.4,73.5,-19992,-29997,-19998
MANGALME,19.62,12.37,0,0,0,13.2,86.7,79.2,139.6,239.5,79.3,0,0,0
GOZBEIDA,21.42,12.23,0,0,0,18.3,31.3,82.5,214.8,129.8,52.6,0,0,0
AMDAM,20.48,12.77,-29997,-29997,-29997,-29997,-29997,-29997,-29997,-29997,-29997,-29997,-29997,-29997
MANDALIA,15.25,11.73,-29997,-29997,-29997,-29997,-29997,-29997,-29997,-29997,-29997,-29997,-29997,-29997
MASSENYA,16.17,11.4,0,0,-19998,-9977.5,66.5,84.8,157.2,194.2,38,0,0,0
MELFI,17.93,11.07,0,0,0,54.1,107.4,67.4,111.4,128.3,14,7.6,0,0
BITKINE,18.22,11.98,-29997,-29997,-29997,-29997,-29997,-29997,-19998,148.6,-19934,-29997,-29997,-29997
ABOUDEIA,19.28,11.48,0,0,0,198.8,105.6,136.9,218.4,191.9,27.4,0,0,0
AMTIM,20.28,11.03,0,0,0,0,6.6,268.3,221.8,230.6,1.6,0,0,0
BILLIAM,15.25,10.58,0,0,0,31.9,76.1,203,239.2,196.5,27.2,0,0,0
BONGOR ,15.37,10.28,-29997,-9999,0,7.6,99.1,-19994.5,-29997,-19962.1,19.8,-19998,-29997,-29997
GUELENDE,15.55,10.92,0,0,0,19.5,61.5,215.3,232.2,224,23,3.3,0,-19998
BAILLI,16.43,10.52,0,0,0,11.5,103.2,169.9,323.6,177,48,37,0,0
BOUSSO,16.72,10.48,0,0,0,42.4,55,-19953.3,-29997,-29997,-29997,-29997,-29997,-19998
DAGUELA,18.45,10.73,-29997,-29997,-29997,-29997,-29997,-29997,-29997,-29997,-29997,-29997,-29997,-29997
HARAZEM,21.32,10.5,0,0,0,79.3,114.1,132.4,186.2,278.3,48.4,0,0,-19998
LERE,14.15,9.63,-29997,-29997,-29997,-29997,-29997,-29997,-29997,-29997,-29997,-29997,-29997,-29997
BADJE,14.58,9.15,0,9.8,0,126.1,163.9,118.3,243.3,324.5,83.5,0.1,0,0
PALA ,14.92,9.37,0,0,0,38.9,13.2,13.8,320.6,127.6,45.2,-19997.4,-29997,-19998
TORROCK,15.02,9.67,0,0,0,39,125,-19966.5,-29997,-19883,51.5,10,0,0
TIKEM,15.05,9.82,0,0,0,57.3,103,233.5,288.5,187,36,0,0,0
KAIROUAL,15.15,9.48,0,0,0,105.2,78.2,161.3,422.3,236.2,140.6,10,0,0
FIANGA ,15.13,9.93,0,0,0,90,91.7,236.7,255.1,-19932.8,-29997,-19998,0,-19998
KELO ,15.77,9.32,0,0,0,81,98.1,137.1,322,189.3,61.9,0,0,0
BERE,16.15,9.32,0,0,0,139.8,75.6,174.3,410.4,242.7,83.2,5,0,0
DOHER ,16.28,9.05,-29997,-29997,-29997,-29997,-29997,-29997,-29997,-29997,-29997,-29997,-29997,-29997
LAI,16.3,9.4,0,0,41.3,144.1,89.4,130.4,359.8,261.8,80.4,0,0,0
GUIDARI,16.67,9.27,0,0,0,85,21,130,268,264,126,0,0,0
DONOMA,16.92,9.23,0,0,0,128.5,115,194,386,348.5,142.6,0,0,0
TALIA,17.85,9.4,0,0,62.5,172,135.8,188.7,251.5,194.5,172.6,7.5,0,0
SARH ,18.38,9.15,0,0,0,99,151.8,200.9,340.3,197.4,103.3,0.2,0,0
KYABE ,18.93,9.43,0,0,0,110,208.7,131.5,296.7,258.1,75.1,2.8,0,0
BAINAMAR,15.38,8.67,-29997,-29997,-29997,-29997,-29997,-29997,-29997,-29997,-29997,-29997,-29997,-29997
DELI,15.87,8.72,0,0,1.6,145.2,117.2,181.3,318.2,218.8,131.7,33.6,0,0
BEKOUROU,17.5,8.12,-29997,-29997,-29997,-29997,-29997,-29997,-29997,-29997,-29997,-29997,-29997,-29997
MOUNDOU ,16.07,8.62,0,0,0,46.3,146.5,130.8,342.1,180.1,23.7,10.5,0,0
DONIA,16.42,8.4,0,0,0,45.1,195.7,224.3,402.8,429.1,242.6,30.7,0,-19998
BEBEDJIA,16.57,8.67,0,0,5.7,22.1,102.4,150.8,455.4,286,77.2,39.7,0,0
DOBA ,16.85,8.67,-29997,-29997,-29997,-29997,-29997,-29997,-29997,-29997,-29997,-29997,-29997,-19998
BEKAMBA,17.35,8.72,-29997,-29997,-29997,-29997,-29997,-29997,-29997,-29997,-29997,-29997,-29997,-29997
KOUMRA,17.53,8.92,0,0,20,101.6,49.4,178.6,435.4,296.5,100.5,0,0,0
MOISSALA ,17.78,8.38,0,0,34.3,133.9,123.6,153.5,318,308.6,121.4,59.6,0,-19998
MOUSSAFO,18.72,8.85,-29997,-29997,-29997,-29997,-29997,-29997,-29997,-29997,-29997,-29997,-29997,-29997
MARO,18.78,8.4,0,4.5,9.5,48.5,-19987,-9931.4,185.4,358.5,152.5,98,0,-19998
BAIBOK,15.68,7.73,0,0,0,137.9,143.8,166,327.3,396.3,139.8,44.9,0,0
PANDZANG,15.8,7.95,-29997,-29997,-29997,-9959,101.6,171.5,364.2,208,91,39,0,-19998
BEKAO,16.07,7.92,0,0,7.7,111.6,196.5,189,112.7,234.3,132.8,31.8,0,0
BEKAN,15.68,7.73,0,0,22,96.5,151,117,326,287,94,42,0,0
GORE,16.63,7.93,0,0,8.4,110.1,267.5,255.2,352.5,321,146.5,22.4,0,0
GOUNDI ,17.37,9.37,0,-29997,-29997,-29997,-29997,-29997,-29997,-29997,-29997,-29997,-9999,0
MOUSSORO,16.5,13.65,0,0,0,0,10,25,138.5,150,0,0,0,0
BOL,14.72,13.47,0,0,0,2.2,6.2,72.3,122.4,87.2,18.6,0,0,-19998
MANDE,16.27,9.58,0,0,0,138,19.5,123,249,201,112.5,0,0,0
BANDARO,18.72,12.23,0,0,0,-19998,-29997,-29997,-29997,-29997,-29997,-19998,0,0
MASSAKORY,15.72,13,-29997,-29997,-29997,-29997,-29997,-29997,-29997,-29997,-29997,-29997,-29997,-19998
BONGOR ,15.4,10.27,-29997,-29997,-29997,-29997,-29997,-29997,-29997,-29997,-29997,-29997,-29997,-29997
MOULKOU,15.58,10.53,0,0,0,16.8,31,228.2,-19880,-29997,-29997,-29997,-9999,0
DERESSIA,16.27,9.75,0,0,1.2,65.2,27.8,217.5,367.9,261.9,117.2,3.7,0,0
MAILAO,15.28,11.58,0,0,0,3.6,40,123.2,165,169,33.5,0,0,0
GUEREDA,22.08,14.52,0,0,0,2.5,16,38.9,141.5,108.6,85,2.5,0,0
HARAZED,19.43,13.95,-29997,-29997,-29997,-29997,-29997,-29997,-29997,-29997,-29997,-29997,-29997,-29997
ABOUGOU,20.77,13.67,-29997,-29997,-29997,-29997,-29997,-29997,-29997,-29997,-29997,-29997,-29997,-29997
YAO,17.57,12.85,0,0,0,0,0,34.5,158,136,37,0,0,0
ABOULELA,14.77,12.7,-29997,-29997,-29997,-29997,-29997,-29997,-29997,-29997,-29997,-29997,-29997,-29997
ABTOU,18.07,11.98,-29997,-29997,-29997,-29997,-29997,-29997,-29997,-29997,-29997,-29997,-29997,-19998
AMTIM,20.28,11.03,-29997,-29997,-29997,-29997,-29997,-29997,-29997,-29997,-29997,-29997,-29997,-29997
FIANGA,15.13,9.92,-29997,-29997,-29997,-29997,-29997,-29997,-29997,-29997,-29997,-29997,-29997,-29997
MOMBAR,14.42,9.92,0,0,0,67,106,82.5,267,365.5,90,45.5,0,0
LERE ,14.22,9.65,0,0.7,0,49.8,185.2,137.8,179.7,331.3,44.3,6.8,0,0
KYABE,18.93,9.48,0,0,0,105.9,192.7,130.1,288.8,264.3,90.4,4.2,0,0
PALA ,14.87,9.37,0,0,0,120.5,156,159,374.5,207.7,151,2.7,0,0
KELO,15.8,9.32,-29997,-29997,-29997,-29997,-29997,-29997,-29997,-29997,-29997,-29997,-29997,-29997
SARH ,18.37,9.17,-29997,-29997,-29997,-29997,-29997,-29997,-29997,-29997,-29997,-29997,-29997,-29997
GAGAL,15.13,9.02,0,18,0,219.6,213.2,132.4,325.5,283.9,84.7,6.6,0,0
BENOYE,16.32,8.98,0,0,12,66.1,58.2,63.4,278.4,-19877.4,-29997,-29997,-29997,-19998
KOUMRA ,17.52,8.92,0,0,15.5,83.5,57,190.5,416,377,105.5,2.6,0,0
BESSADA,17.7,8.95,0,0,9.5,160.4,67,131.3,400.1,284.8,82.1,15.1,0,0
DOBA,16.85,8.65,0,0,18.5,40,151,211.2,356.1,234.6,99.5,10,0,0
MOUNDOU ,16.05,8.55,-29997,-29997,-29997,-29997,-29997,-29997,-29997,-29997,-29997,-29997,-29997,-29997
MOISSALA,17.77,8.33,-29997,-9999,61.3,-19983.2,-29997,-29997,-29997,-29997,-29997,-29997,-29997,-29997
BEBOTO,16.93,8.28,-29997,-29997,-29997,-29997,-29997,-29997,-29997,-29997,-29997,-29997,-29997,-29997
MONKARA,17.08,8.95,0,0,-19998,-29997,-19949,143,351.8,328.7,104.3,24.5,0,0
BEDAYA,17.87,8.92,0,7,49,134,57,126.5,370,342.5,130.4,90,0,0
KRIMKR,15.8,8.97,0,0,5.5,137.9,94,131.3,378.3,247.3,94.5,11.5,0,0
BINDER,14.7,9.58,0,0,0,53.5,106.3,231.5,198.9,283.6,100,11,0,0
DOURBALI,15.87,11.82,0,0,15,32.2,52.2,180.2,191.5,157.3,79.2,0,0,0
KAGA ,16.77,9.22,-29997,-29997,-29997,-29997,-29997,-29997,-29997,-29997,-29997,-29997,-29997,-29997
LARAMAN,15.67,8.05,0,0,7.6,91,119,213,321.3,277.2,131.9,27.5,0,0
DOUMD,15.38,13.2,0,-9999,0,-19998,-29997,-9967.5,160,107.8,69.6,0,0,0
PONKAROL,15.5,9.3,0,0,12.5,80.5,95.1,254,347.5,155.6,185.8,0,0,0
LAGON,14.53,9.48,0,0,0,87,162.5,252.5,206,363.5,106.5,0,0,0
BENOYE ,16.33,8.98,-29997,-29997,-29997,-29997,-29997,-29997,-29997,-29997,-29997,-29997,-29997,-29997
LAOUKASSY,15.7,8.85,0,0,0,166,134.2,178.5,391,173,119,48,0,0
MASSAKORY ,15.73,13.02,0,0,0,39,47.2,64,121,116,23.8,0,0,-19998
